[{"id":45799143,"harvest_time":"2022-01-25T14:15:03","station_id":2,"available_bike_stands":13,"bike_stands":20,"available_bikes":7,"banking":false,"bonus":false,"last_update":"2022-01-25T14:11:23","status":"OPEN","address":"Blessington Street","name":"BLESSINGTON STREET","latitude":"53.3568","longitude":"-6.26814"},{"id":45799163,"harvest_time":"2022-01-25T14:15:03","station_id":3,"available_bike_stands":13,"bike_stands":20,"available_bikes":7,"banking":false,"bonus":false,"last_update":"2022-01-25T14:10:08","status":"OPEN","address":"Bolton Street","name":"BOLTON STREET","latitude":"53.3512","longitude":"-6.26986"},{"id":45799104,"harvest_time":"2022-01-25T14:15:03","station_id":4,"available_bike_stands":9,"bike_stands":20,"available_bikes":11,"banking":false,"bonus":false,"last_update":"2022-01-25T14:06:13","status":"OPEN","address":"Greek Street","name":"GREEK STREET","latitude":"53.3469","longitude":"-6.27298"},{"id":45799099,"harvest_time":"2022-01-25T14:15:03","station_id":5,"available_bike_stands":27,"bike_stands":40,"available_bikes":13,"banking":false,"bonus":false,"last_update":"2022-01-25T14:08:35","status":"OPEN","address":"Charlemont Street","name":"CHARLEMONT PLACE","latitude":"53.3307","longitude":"-6.26018"},{"id":45799068,"harvest_time":"2022-01-25T14:15:03","station_id":6,"available_bike_stands":18,"bike_stands":20,"available_bikes":2,"banking":false,"bonus":false,"last_update":"2022-01-25T14:04:31","status":"OPEN","address":"Christchurch Place","name":"CHRISTCHURCH PLACE","latitude":"53.3434","longitude":"-6.27012"},{"id":45799107,"harvest_time":"2022-01-25T14:15:03","station_id":7,"available_bike_stands":23,"bike_stands":29,"available_bikes":6,"banking":false,"bonus":false,"last_update":"2022-01-25T14:06:27","status":"OPEN","address":"High Street","name":"HIGH STREET","latitude":"53.3436","longitude":"-6.27507"},{"id":45799119,"harvest_time":"2022-01-25T14:15:03","station_id":8,"available_bike_stands":20,"bike_stands":30,"available_bikes":10,"banking":false,"bonus":false,"last_update":"2022-01-25T14:07:17","status":"OPEN","address":"Custom House Quay","name":"CUSTOM HOUSE QUAY","latitude":"53.3479","longitude":"-6.24805"},{"id":45799094,"harvest_time":"2022-01-25T14:15:03","station_id":9,"available_bike_stands":11,"bike_stands":24,"available_bikes":13,"banking":false,"bonus":false,"last_update":"2022-01-25T14:08:40","status":"OPEN","address":"Exchequer Street","name":"EXCHEQUER STREET","latitude":"53.343","longitude":"-6.26358"},{"id":45799150,"harvest_time":"2022-01-25T14:15:03","station_id":10,"available_bike_stands":4,"bike_stands":16,"available_bikes":12,"banking":true,"bonus":false,"last_update":"2022-01-25T14:08:53","status":"OPEN","address":"Dame Street","name":"DAME STREET","latitude":"53.344","longitude":"-6.2668"},{"id":45799085,"harvest_time":"2022-01-25T14:15:03","station_id":11,"available_bike_stands":19,"bike_stands":30,"available_bikes":11,"banking":false,"bonus":false,"last_update":"2022-01-25T14:09:43","status":"OPEN","address":"Earlsfort Terrace","name":"EARLSFORT TERRACE","latitude":"53.3343","longitude":"-6.2585"},{"id":45799140,"harvest_time":"2022-01-25T14:15:03","station_id":12,"available_bike_stands":11,"bike_stands":20,"available_bikes":9,"banking":false,"bonus":false,"last_update":"2022-01-25T14:12:12","status":"OPEN","address":"Eccles Street","name":"ECCLES STREET","latitude":"53.3592","longitude":"-6.26978"},{"id":45799073,"harvest_time":"2022-01-25T14:15:03","station_id":13,"available_bike_stands":9,"bike_stands":30,"available_bikes":21,"banking":false,"bonus":false,"last_update":"2022-01-25T14:10:38","status":"OPEN","address":"Fitzwilliam Square West","name":"FITZWILLIAM SQUARE WEST","latitude":"53.3361","longitude":"-6.25282"},{"id":45799148,"harvest_time":"2022-01-25T14:15:03","station_id":15,"available_bike_stands":11,"bike_stands":16,"available_bikes":5,"banking":false,"bonus":false,"last_update":"2022-01-25T14:13:26","status":"OPEN","address":"Hardwicke Street","name":"HARDWICKE STREET","latitude":"53.3555","longitude":"-6.26442"},{"id":45799121,"harvest_time":"2022-01-25T14:15:03","station_id":16,"available_bike_stands":8,"bike_stands":20,"available_bikes":12,"banking":false,"bonus":false,"last_update":"2022-01-25T14:08:13","status":"OPEN","address":"Georges Quay","name":"GEORGES QUAY","latitude":"53.3475","longitude":"-6.25219"},{"id":45799086,"harvest_time":"2022-01-25T14:15:03","station_id":17,"available_bike_stands":10,"bike_stands":20,"available_bikes":10,"banking":false,"bonus":false,"last_update":"2022-01-25T14:08:02","status":"OPEN","address":"Golden Lane","name":"GOLDEN LANE","latitude":"53.3408","longitude":"-6.26773"},{"id":45799069,"harvest_time":"2022-01-25T14:15:03","station_id":18,"available_bike_stands":11,"bike_stands":30,"available_bikes":19,"banking":false,"bonus":false,"last_update":"2022-01-25T14:13:59","status":"OPEN","address":"Grantham Street","name":"GRANTHAM STREET","latitude":"53.3341","longitude":"-6.26544"},{"id":45799106,"harvest_time":"2022-01-25T14:15:03","station_id":19,"available_bike_stands":15,"bike_stands":30,"available_bikes":15,"banking":false,"bonus":false,"last_update":"2022-01-25T14:12:45","status":"OPEN","address":"Herbert Place","name":"HERBERT PLACE","latitude":"53.3344","longitude":"-6.24557"},{"id":45799171,"harvest_time":"2022-01-25T14:15:03","station_id":21,"available_bike_stands":8,"bike_stands":30,"available_bikes":22,"banking":false,"bonus":false,"last_update":"2022-01-25T14:11:52","status":"OPEN","address":"Leinster Street South","name":"LEINSTER STREET SOUTH","latitude":"53.3422","longitude":"-6.25449"},{"id":45799137,"harvest_time":"2022-01-25T14:15:03","station_id":22,"available_bike_stands":13,"bike_stands":20,"available_bikes":7,"banking":false,"bonus":false,"last_update":"2022-01-25T14:12:17","status":"OPEN","address":"Townsend Street","name":"TOWNSEND STREET","latitude":"53.3459","longitude":"-6.25461"},{"id":45799077,"harvest_time":"2022-01-25T14:15:03","station_id":23,"available_bike_stands":24,"bike_stands":30,"available_bikes":6,"banking":false,"bonus":false,"last_update":"2022-01-25T14:05:54","status":"OPEN","address":"Custom House","name":"CUSTOM HOUSE","latitude":"53.3483","longitude":"-6.25466"},{"id":45799152,"harvest_time":"2022-01-25T14:15:03","station_id":24,"available_bike_stands":18,"bike_stands":20,"available_bikes":2,"banking":false,"bonus":false,"last_update":"2022-01-25T14:07:00","status":"OPEN","address":"Cathal Brugha Street","name":"CATHAL BRUGHA STREET","latitude":"53.3521","longitude":"-6.26053"},{"id":45799128,"harvest_time":"2022-01-25T14:15:03","station_id":25,"available_bike_stands":8,"bike_stands":30,"available_bikes":21,"banking":false,"bonus":false,"last_update":"2022-01-25T14:13:23","status":"OPEN","address":"Merrion Square East","name":"MERRION SQUARE EAST","latitude":"53.3394","longitude":"-6.24655"},{"id":45799146,"harvest_time":"2022-01-25T14:15:03","station_id":26,"available_bike_stands":12,"bike_stands":20,"available_bikes":8,"banking":true,"bonus":false,"last_update":"2022-01-25T14:12:34","status":"OPEN","address":"Merrion Square West","name":"MERRION SQUARE WEST","latitude":"53.3398","longitude":"-6.25199"},{"id":45799120,"harvest_time":"2022-01-25T14:15:03","station_id":27,"available_bike_stands":8,"bike_stands":20,"available_bikes":12,"banking":false,"bonus":false,"last_update":"2022-01-25T14:09:14","status":"OPEN","address":"Molesworth Street","name":"MOLESWORTH STREET","latitude":"53.3413","longitude":"-6.25812"},{"id":45799167,"harvest_time":"2022-01-25T14:15:03","station_id":28,"available_bike_stands":10,"bike_stands":30,"available_bikes":20,"banking":false,"bonus":false,"last_update":"2022-01-25T14:13:29","status":"OPEN","address":"Mountjoy Square West","name":"MOUNTJOY SQUARE WEST","latitude":"53.3563","longitude":"-6.25859"},{"id":45799165,"harvest_time":"2022-01-25T14:15:03","station_id":29,"available_bike_stands":13,"bike_stands":29,"available_bikes":16,"banking":false,"bonus":false,"last_update":"2022-01-25T14:09:43","status":"OPEN","address":"Ormond Quay Upper","name":"ORMOND QUAY UPPER","latitude":"53.3461","longitude":"-6.268"},{"id":45799064,"harvest_time":"2022-01-25T14:15:03","station_id":30,"available_bike_stands":17,"bike_stands":20,"available_bikes":3,"banking":false,"bonus":false,"last_update":"2022-01-25T14:12:19","status":"OPEN","address":"Parnell Square North","name":"PARNELL SQUARE NORTH","latitude":"53.3535","longitude":"-6.26531"},{"id":45799075,"harvest_time":"2022-01-25T14:15:03","station_id":31,"available_bike_stands":2,"bike_stands":20,"available_bikes":18,"banking":false,"bonus":false,"last_update":"2022-01-25T14:04:28","status":"OPEN","address":"Parnell Street","name":"PARNELL STREET","latitude":"53.3509","longitude":"-6.26512"},{"id":45799070,"harvest_time":"2022-01-25T14:15:03","station_id":32,"available_bike_stands":14,"bike_stands":30,"available_bikes":16,"banking":false,"bonus":false,"last_update":"2022-01-25T14:11:18","status":"OPEN","address":"Pearse Street","name":"PEARSE STREET","latitude":"53.3443","longitude":"-6.25043"},{"id":45799157,"harvest_time":"2022-01-25T14:15:03","station_id":33,"available_bike_stands":12,"bike_stands":23,"available_bikes":11,"banking":true,"bonus":false,"last_update":"2022-01-25T14:12:33","status":"OPEN","address":"Princes Street / O'Connell Street","name":"PRINCES STREET / O'CONNELL STREET","latitude":"53.349","longitude":"-6.26031"},{"id":45799141,"harvest_time":"2022-01-25T14:15:03","station_id":34,"available_bike_stands":11,"bike_stands":30,"available_bikes":19,"banking":false,"bonus":false,"last_update":"2022-01-25T14:11:32","status":"OPEN","address":"Portobello Harbour","name":"PORTOBELLO HARBOUR","latitude":"53.3304","longitude":"-6.26516"},{"id":45799135,"harvest_time":"2022-01-25T14:15:03","station_id":36,"available_bike_stands":29,"bike_stands":40,"available_bikes":11,"banking":false,"bonus":false,"last_update":"2022-01-25T14:11:58","status":"OPEN","address":"St. Stephen's Green East","name":"ST. STEPHEN'S GREEN EAST","latitude":"53.3378","longitude":"-6.25603"},{"id":45799130,"harvest_time":"2022-01-25T14:15:03","station_id":37,"available_bike_stands":18,"bike_stands":30,"available_bikes":12,"banking":true,"bonus":false,"last_update":"2022-01-25T14:04:19","status":"OPEN","address":"St. Stephen's Green South","name":"ST. STEPHEN'S GREEN SOUTH","latitude":"53.3375","longitude":"-6.26199"},{"id":45799110,"harvest_time":"2022-01-25T14:15:03","station_id":38,"available_bike_stands":21,"bike_stands":40,"available_bikes":18,"banking":false,"bonus":false,"last_update":"2022-01-25T14:04:20","status":"OPEN","address":"Talbot Street","name":"TALBOT STREET","latitude":"53.351","longitude":"-6.25294"},{"id":45799168,"harvest_time":"2022-01-25T14:15:03","station_id":39,"available_bike_stands":14,"bike_stands":20,"available_bikes":6,"banking":false,"bonus":false,"last_update":"2022-01-25T14:12:10","status":"OPEN","address":"Wilton Terrace","name":"WILTON TERRACE","latitude":"53.3324","longitude":"-6.25272"},{"id":45799164,"harvest_time":"2022-01-25T14:15:03","station_id":40,"available_bike_stands":15,"bike_stands":21,"available_bikes":6,"banking":false,"bonus":false,"last_update":"2022-01-25T14:13:51","status":"OPEN","address":"Jervis Street","name":"JERVIS STREET","latitude":"53.3483","longitude":"-6.26665"},{"id":45799162,"harvest_time":"2022-01-25T14:15:03","station_id":41,"available_bike_stands":6,"bike_stands":20,"available_bikes":13,"banking":false,"bonus":false,"last_update":"2022-01-25T14:08:03","status":"OPEN","address":"Harcourt Terrace","name":"HARCOURT TERRACE","latitude":"53.3328","longitude":"-6.25794"},{"id":45799063,"harvest_time":"2022-01-25T14:15:03","station_id":42,"available_bike_stands":6,"bike_stands":30,"available_bikes":24,"banking":false,"bonus":false,"last_update":"2022-01-25T14:06:36","status":"OPEN","address":"Smithfield North","name":"SMITHFIELD NORTH","latitude":"53.3496","longitude":"-6.2782"},{"id":45799074,"harvest_time":"2022-01-25T14:15:03","station_id":43,"available_bike_stands":27,"bike_stands":30,"available_bikes":3,"banking":false,"bonus":false,"last_update":"2022-01-25T14:13:41","status":"OPEN","address":"Portobello Road","name":"PORTOBELLO ROAD","latitude":"53.3301","longitude":"-6.26804"},{"id":45799158,"harvest_time":"2022-01-25T14:15:03","station_id":44,"available_bike_stands":15,"bike_stands":30,"available_bikes":15,"banking":false,"bonus":false,"last_update":"2022-01-25T14:13:41","status":"OPEN","address":"Upper Sherrard Street","name":"UPPER SHERRARD STREET","latitude":"53.3584","longitude":"-6.26064"},{"id":45799087,"harvest_time":"2022-01-25T14:15:03","station_id":45,"available_bike_stands":23,"bike_stands":30,"available_bikes":7,"banking":false,"bonus":false,"last_update":"2022-01-25T14:10:26","status":"OPEN","address":"Deverell Place","name":"DEVERELL PLACE","latitude":"53.3515","longitude":"-6.25527"},{"id":45799117,"harvest_time":"2022-01-25T14:15:03","station_id":47,"available_bike_stands":32,"bike_stands":40,"available_bikes":8,"banking":false,"bonus":false,"last_update":"2022-01-25T14:08:41","status":"OPEN","address":"Herbert Street","name":"HERBERT STREET","latitude":"53.3357","longitude":"-6.24551"},{"id":45799072,"harvest_time":"2022-01-25T14:15:03","station_id":48,"available_bike_stands":35,"bike_stands":40,"available_bikes":5,"banking":false,"bonus":false,"last_update":"2022-01-25T14:11:29","status":"OPEN","address":"Excise Walk","name":"EXCISE WALK","latitude":"53.3478","longitude":"-6.24424"},{"id":45799105,"harvest_time":"2022-01-25T14:15:03","station_id":49,"available_bike_stands":32,"bike_stands":40,"available_bikes":8,"banking":false,"bonus":false,"last_update":"2022-01-25T14:11:38","status":"OPEN","address":"Guild Street","name":"GUILD STREET","latitude":"53.3479","longitude":"-6.24093"},{"id":45799138,"harvest_time":"2022-01-25T14:15:03","station_id":50,"available_bike_stands":31,"bike_stands":40,"available_bikes":9,"banking":false,"bonus":false,"last_update":"2022-01-25T14:09:57","status":"OPEN","address":"George's Lane","name":"GEORGES LANE","latitude":"53.3502","longitude":"-6.2797"},{"id":45799129,"harvest_time":"2022-01-25T14:15:03","station_id":51,"available_bike_stands":31,"bike_stands":40,"available_bikes":9,"banking":false,"bonus":false,"last_update":"2022-01-25T14:05:10","status":"OPEN","address":"York Street West","name":"YORK STREET WEST","latitude":"53.3393","longitude":"-6.2647"},{"id":45799071,"harvest_time":"2022-01-25T14:15:03","station_id":52,"available_bike_stands":18,"bike_stands":32,"available_bikes":14,"banking":false,"bonus":false,"last_update":"2022-01-25T14:06:24","status":"OPEN","address":"York Street East","name":"YORK STREET EAST","latitude":"53.3388","longitude":"-6.262"},{"id":45799111,"harvest_time":"2022-01-25T14:15:03","station_id":53,"available_bike_stands":28,"bike_stands":40,"available_bikes":12,"banking":false,"bonus":false,"last_update":"2022-01-25T14:07:33","status":"OPEN","address":"Newman House","name":"NEWMAN HOUSE","latitude":"53.3371","longitude":"-6.26059"},{"id":45799065,"harvest_time":"2022-01-25T14:15:03","station_id":54,"available_bike_stands":23,"bike_stands":33,"available_bikes":10,"banking":false,"bonus":false,"last_update":"2022-01-25T14:07:20","status":"OPEN","address":"Clonmel Street","name":"CLONMEL STREET","latitude":"53.336","longitude":"-6.26298"},{"id":45799097,"harvest_time":"2022-01-25T14:15:03","station_id":55,"available_bike_stands":21,"bike_stands":36,"available_bikes":15,"banking":false,"bonus":false,"last_update":"2022-01-25T14:09:27","status":"OPEN","address":"Hatch Street","name":"HATCH STREET","latitude":"53.334","longitude":"-6.26071"},{"id":45799067,"harvest_time":"2022-01-25T14:15:03","station_id":56,"available_bike_stands":31,"bike_stands":40,"available_bikes":9,"banking":false,"bonus":false,"last_update":"2022-01-25T14:08:58","status":"OPEN","address":"Mount Street Lower","name":"MOUNT STREET LOWER","latitude":"53.338","longitude":"-6.24153"},{"id":45799160,"harvest_time":"2022-01-25T14:15:03","station_id":57,"available_bike_stands":13,"bike_stands":23,"available_bikes":10,"banking":false,"bonus":false,"last_update":"2022-01-25T14:11:10","status":"OPEN","address":"Grattan Street","name":"GRATTAN STREET","latitude":"53.3396","longitude":"-6.24378"},{"id":45799112,"harvest_time":"2022-01-25T14:15:03","station_id":58,"available_bike_stands":17,"bike_stands":40,"available_bikes":23,"banking":false,"bonus":false,"last_update":"2022-01-25T14:08:03","status":"OPEN","address":"Sir Patrick's Dun","name":"SIR PATRICK DUN'S","latitude":"53.3392","longitude":"-6.24064"},{"id":45799131,"harvest_time":"2022-01-25T14:15:03","station_id":59,"available_bike_stands":13,"bike_stands":20,"available_bikes":7,"banking":false,"bonus":false,"last_update":"2022-01-25T14:06:34","status":"OPEN","address":"Denmark Street Great","name":"DENMARK STREET GREAT","latitude":"53.3556","longitude":"-6.2614"},{"id":45799108,"harvest_time":"2022-01-25T14:15:03","station_id":60,"available_bike_stands":17,"bike_stands":30,"available_bikes":13,"banking":false,"bonus":false,"last_update":"2022-01-25T14:06:11","status":"OPEN","address":"North Circular Road","name":"NORTH CIRCULAR ROAD","latitude":"53.3596","longitude":"-6.26035"},{"id":45799101,"harvest_time":"2022-01-25T14:15:03","station_id":61,"available_bike_stands":20,"bike_stands":25,"available_bikes":5,"banking":false,"bonus":false,"last_update":"2022-01-25T14:05:07","status":"OPEN","address":"Hardwicke Place","name":"HARDWICKE PLACE","latitude":"53.357","longitude":"-6.26323"},{"id":45799098,"harvest_time":"2022-01-25T14:15:03","station_id":62,"available_bike_stands":35,"bike_stands":40,"available_bikes":5,"banking":false,"bonus":false,"last_update":"2022-01-25T14:08:06","status":"OPEN","address":"Lime Street","name":"LIME STREET","latitude":"53.346","longitude":"-6.24358"},{"id":45799090,"harvest_time":"2022-01-25T14:15:03","station_id":63,"available_bike_stands":20,"bike_stands":35,"available_bikes":15,"banking":false,"bonus":false,"last_update":"2022-01-25T14:12:22","status":"OPEN","address":"Fenian Street","name":"FENIAN STREET","latitude":"53.3414","longitude":"-6.24672"},{"id":45799153,"harvest_time":"2022-01-25T14:15:03","station_id":64,"available_bike_stands":30,"bike_stands":40,"available_bikes":10,"banking":false,"bonus":false,"last_update":"2022-01-25T14:14:16","status":"OPEN","address":"Sandwith Street","name":"SANDWITH STREET","latitude":"53.3452","longitude":"-6.24716"},{"id":45799147,"harvest_time":"2022-01-25T14:15:03","station_id":65,"available_bike_stands":31,"bike_stands":40,"available_bikes":9,"banking":true,"bonus":false,"last_update":"2022-01-25T14:04:31","status":"OPEN","address":"Convention Centre","name":"CONVENTION CENTRE","latitude":"53.3474","longitude":"-6.23852"},{"id":45799113,"harvest_time":"2022-01-25T14:15:03","station_id":66,"available_bike_stands":31,"bike_stands":40,"available_bikes":9,"banking":false,"bonus":false,"last_update":"2022-01-25T14:08:58","status":"OPEN","address":"New Central Bank","name":"NEW CENTRAL BANK","latitude":"53.3471","longitude":"-6.23475"},{"id":45799095,"harvest_time":"2022-01-25T14:15:03","station_id":67,"available_bike_stands":29,"bike_stands":40,"available_bikes":11,"banking":false,"bonus":false,"last_update":"2022-01-25T14:07:45","status":"OPEN","address":"The Point","name":"THE POINT","latitude":"53.3469","longitude":"-6.23085"},{"id":45799080,"harvest_time":"2022-01-25T14:15:03","station_id":68,"available_bike_stands":32,"bike_stands":40,"available_bikes":8,"banking":false,"bonus":false,"last_update":"2022-01-25T14:07:52","status":"OPEN","address":"Hanover Quay","name":"HANOVER QUAY","latitude":"53.3441","longitude":"-6.23715"},{"id":45799127,"harvest_time":"2022-01-25T14:15:03","station_id":69,"available_bike_stands":6,"bike_stands":40,"available_bikes":34,"banking":false,"bonus":false,"last_update":"2022-01-25T14:12:13","status":"OPEN","address":"Grand Canal Dock","name":"GRAND CANAL DOCK","latitude":"53.3426","longitude":"-6.2387"},{"id":45799125,"harvest_time":"2022-01-25T14:15:03","station_id":71,"available_bike_stands":39,"bike_stands":40,"available_bikes":1,"banking":false,"bonus":false,"last_update":"2022-01-25T14:12:50","status":"OPEN","address":"Kevin Street","name":"KEVIN STREET","latitude":"53.3378","longitude":"-6.2677"},{"id":45799089,"harvest_time":"2022-01-25T14:15:03","station_id":72,"available_bike_stands":9,"bike_stands":31,"available_bikes":22,"banking":false,"bonus":false,"last_update":"2022-01-25T14:06:08","status":"OPEN","address":"John Street West","name":"JOHN STREET WEST","latitude":"53.3431","longitude":"-6.27717"},{"id":45799103,"harvest_time":"2022-01-25T14:15:03","station_id":73,"available_bike_stands":19,"bike_stands":30,"available_bikes":11,"banking":false,"bonus":false,"last_update":"2022-01-25T14:12:18","status":"OPEN","address":"Francis Street","name":"FRANCIS STREET","latitude":"53.3421","longitude":"-6.27523"},{"id":45799081,"harvest_time":"2022-01-25T14:15:03","station_id":74,"available_bike_stands":13,"bike_stands":30,"available_bikes":17,"banking":false,"bonus":false,"last_update":"2022-01-25T14:10:14","status":"OPEN","address":"Oliver Bond Street","name":"OLIVER BOND STREET","latitude":"53.3439","longitude":"-6.28053"},{"id":45799144,"harvest_time":"2022-01-25T14:15:03","station_id":75,"available_bike_stands":20,"bike_stands":40,"available_bikes":20,"banking":false,"bonus":false,"last_update":"2022-01-25T14:14:13","status":"OPEN","address":"James Street","name":"JAMES STREET","latitude":"53.3435","longitude":"-6.28741"},{"id":45799124,"harvest_time":"2022-01-25T14:15:03","station_id":76,"available_bike_stands":18,"bike_stands":38,"available_bikes":20,"banking":false,"bonus":false,"last_update":"2022-01-25T14:08:07","status":"OPEN","address":"Market Street South","name":"MARKET STREET SOUTH","latitude":"53.3423","longitude":"-6.28766"},{"id":45799102,"harvest_time":"2022-01-25T14:15:03","station_id":77,"available_bike_stands":19,"bike_stands":29,"available_bikes":10,"banking":false,"bonus":false,"last_update":"2022-01-25T14:14:12","status":"OPEN","address":"Wolfe Tone Street","name":"WOLFE TONE STREET","latitude":"53.3489","longitude":"-6.26746"},{"id":45799142,"harvest_time":"2022-01-25T14:15:03","station_id":78,"available_bike_stands":18,"bike_stands":40,"available_bikes":22,"banking":false,"bonus":false,"last_update":"2022-01-25T14:13:39","status":"OPEN","address":"Mater Hospital","name":"MATER HOSPITAL","latitude":"53.36","longitude":"-6.26483"},{"id":45799126,"harvest_time":"2022-01-25T14:15:03","station_id":79,"available_bike_stands":22,"bike_stands":27,"available_bikes":5,"banking":false,"bonus":false,"last_update":"2022-01-25T14:08:28","status":"OPEN","address":"Eccles Street East","name":"ECCLES STREET EAST","latitude":"53.3581","longitude":"-6.2656"},{"id":45799161,"harvest_time":"2022-01-25T14:15:03","station_id":80,"available_bike_stands":26,"bike_stands":40,"available_bikes":14,"banking":false,"bonus":false,"last_update":"2022-01-25T14:12:48","status":"OPEN","address":"St James Hospital (Luas)","name":"ST JAMES HOSPITAL (LUAS)","latitude":"53.3414","longitude":"-6.29295"},{"id":45799123,"harvest_time":"2022-01-25T14:15:03","station_id":82,"available_bike_stands":7,"bike_stands":22,"available_bikes":15,"banking":false,"bonus":false,"last_update":"2022-01-25T14:09:33","status":"OPEN","address":"Mount Brown","name":"MOUNT BROWN","latitude":"53.3416","longitude":"-6.29719"},{"id":45799169,"harvest_time":"2022-01-25T14:15:03","station_id":83,"available_bike_stands":23,"bike_stands":40,"available_bikes":17,"banking":false,"bonus":false,"last_update":"2022-01-25T14:06:49","status":"OPEN","address":"Emmet Road","name":"EMMET ROAD","latitude":"53.3407","longitude":"-6.30819"},{"id":45799083,"harvest_time":"2022-01-25T14:15:03","station_id":84,"available_bike_stands":13,"bike_stands":30,"available_bikes":17,"banking":false,"bonus":false,"last_update":"2022-01-25T14:08:09","status":"OPEN","address":"Brookfield Road","name":"BROOKFIELD ROAD","latitude":"53.339","longitude":"-6.30022"},{"id":45799155,"harvest_time":"2022-01-25T14:15:03","station_id":85,"available_bike_stands":16,"bike_stands":35,"available_bikes":19,"banking":false,"bonus":false,"last_update":"2022-01-25T14:13:12","status":"OPEN","address":"Rothe Abbey","name":"ROTHE ABBEY","latitude":"53.3388","longitude":"-6.30395"},{"id":45799149,"harvest_time":"2022-01-25T14:15:03","station_id":86,"available_bike_stands":17,"bike_stands":38,"available_bikes":21,"banking":false,"bonus":false,"last_update":"2022-01-25T14:05:56","status":"OPEN","address":"Parkgate Street","name":"PARKGATE STREET","latitude":"53.348","longitude":"-6.2918"},{"id":45799082,"harvest_time":"2022-01-25T14:15:03","station_id":87,"available_bike_stands":31,"bike_stands":38,"available_bikes":7,"banking":false,"bonus":false,"last_update":"2022-01-25T14:06:53","status":"OPEN","address":"Collins Barracks Museum","name":"COLLINS BARRACKS MUSEUM","latitude":"53.3475","longitude":"-6.28525"},{"id":45799172,"harvest_time":"2022-01-25T14:15:03","station_id":88,"available_bike_stands":15,"bike_stands":30,"available_bikes":15,"banking":false,"bonus":false,"last_update":"2022-01-25T14:06:24","status":"OPEN","address":"Blackhall Place","name":"BLACKHALL PLACE","latitude":"53.3488","longitude":"-6.28164"},{"id":45799159,"harvest_time":"2022-01-25T14:15:03","station_id":89,"available_bike_stands":27,"bike_stands":40,"available_bikes":13,"banking":false,"bonus":false,"last_update":"2022-01-25T14:13:43","status":"OPEN","address":"Fitzwilliam Square East","name":"FITZWILLIAM SQUARE EAST","latitude":"53.3352","longitude":"-6.2509"},{"id":45799084,"harvest_time":"2022-01-25T14:15:03","station_id":90,"available_bike_stands":28,"bike_stands":40,"available_bikes":12,"banking":false,"bonus":false,"last_update":"2022-01-25T14:13:26","status":"OPEN","address":"Benson Street","name":"BENSON STREET","latitude":"53.3442","longitude":"-6.23345"},{"id":45799092,"harvest_time":"2022-01-25T14:15:03","station_id":91,"available_bike_stands":10,"bike_stands":30,"available_bikes":20,"banking":false,"bonus":false,"last_update":"2022-01-25T14:10:26","status":"OPEN","address":"South Dock Road","name":"SOUTH DOCK ROAD","latitude":"53.3418","longitude":"-6.23129"},{"id":45799170,"harvest_time":"2022-01-25T14:15:03","station_id":92,"available_bike_stands":24,"bike_stands":40,"available_bikes":16,"banking":false,"bonus":false,"last_update":"2022-01-25T14:05:38","status":"OPEN","address":"Heuston Bridge (North)","name":"HEUSTON BRIDGE (NORTH)","latitude":"53.3478","longitude":"-6.29243"},{"id":45799136,"harvest_time":"2022-01-25T14:15:03","station_id":93,"available_bike_stands":25,"bike_stands":40,"available_bikes":15,"banking":false,"bonus":false,"last_update":"2022-01-25T14:06:44","status":"OPEN","address":"Heuston Station (Central)","name":"HEUSTON STATION (CENTRAL)","latitude":"53.3466","longitude":"-6.29692"},{"id":45799133,"harvest_time":"2022-01-25T14:15:03","station_id":94,"available_bike_stands":37,"bike_stands":40,"available_bikes":3,"banking":false,"bonus":false,"last_update":"2022-01-25T14:05:16","status":"OPEN","address":"Heuston Station (Car Park)","name":"HEUSTON STATION (CAR PARK)","latitude":"53.347","longitude":"-6.2978"},{"id":45799132,"harvest_time":"2022-01-25T14:15:03","station_id":95,"available_bike_stands":39,"bike_stands":40,"available_bikes":1,"banking":false,"bonus":false,"last_update":"2022-01-25T14:11:54","status":"OPEN","address":"Royal Hospital","name":"ROYAL HOSPITAL","latitude":"53.3439","longitude":"-6.29706"},{"id":45799122,"harvest_time":"2022-01-25T14:15:03","station_id":96,"available_bike_stands":12,"bike_stands":30,"available_bikes":18,"banking":false,"bonus":false,"last_update":"2022-01-25T14:04:29","status":"OPEN","address":"Kilmainham Lane","name":"KILMAINHAM LANE","latitude":"53.3418","longitude":"-6.30509"},{"id":45799100,"harvest_time":"2022-01-25T14:15:03","station_id":97,"available_bike_stands":17,"bike_stands":40,"available_bikes":23,"banking":false,"bonus":false,"last_update":"2022-01-25T14:09:20","status":"OPEN","address":"Kilmainham Gaol","name":"KILMAINHAM GAOL","latitude":"53.3421","longitude":"-6.31002"},{"id":45799076,"harvest_time":"2022-01-25T14:15:03","station_id":98,"available_bike_stands":16,"bike_stands":40,"available_bikes":24,"banking":false,"bonus":false,"last_update":"2022-01-25T14:10:38","status":"OPEN","address":"Frederick Street South","name":"FREDERICK STREET SOUTH","latitude":"53.3415","longitude":"-6.25685"},{"id":45799093,"harvest_time":"2022-01-25T14:15:03","station_id":99,"available_bike_stands":27,"bike_stands":30,"available_bikes":3,"banking":false,"bonus":false,"last_update":"2022-01-25T14:05:33","status":"OPEN","address":"City Quay","name":"CITY QUAY","latitude":"53.3466","longitude":"-6.24615"},{"id":45799151,"harvest_time":"2022-01-25T14:15:03","station_id":100,"available_bike_stands":10,"bike_stands":25,"available_bikes":15,"banking":false,"bonus":false,"last_update":"2022-01-25T14:10:08","status":"OPEN","address":"Heuston Bridge (South)","name":"HEUSTON BRIDGE (SOUTH)","latitude":"53.3471","longitude":"-6.29204"},{"id":45799115,"harvest_time":"2022-01-25T14:15:03","station_id":101,"available_bike_stands":18,"bike_stands":30,"available_bikes":12,"banking":false,"bonus":false,"last_update":"2022-01-25T14:14:00","status":"OPEN","address":"King Street North","name":"KING STREET NORTH","latitude":"53.3503","longitude":"-6.27351"},{"id":45799109,"harvest_time":"2022-01-25T14:15:03","station_id":102,"available_bike_stands":24,"bike_stands":40,"available_bikes":16,"banking":false,"bonus":false,"last_update":"2022-01-25T14:12:54","status":"OPEN","address":"Western Way","name":"WESTERN WAY","latitude":"53.3549","longitude":"-6.26942"},{"id":45799166,"harvest_time":"2022-01-25T14:15:03","station_id":103,"available_bike_stands":29,"bike_stands":40,"available_bikes":11,"banking":false,"bonus":false,"last_update":"2022-01-25T14:07:58","status":"OPEN","address":"Grangegorman Lower (South)","name":"GRANGEGORMAN LOWER (SOUTH)","latitude":"53.3547","longitude":"-6.27868"},{"id":45799114,"harvest_time":"2022-01-25T14:15:03","station_id":104,"available_bike_stands":28,"bike_stands":40,"available_bikes":12,"banking":false,"bonus":false,"last_update":"2022-01-25T14:11:29","status":"OPEN","address":"Grangegorman Lower (Central)","name":"GRANGEGORMAN LOWER (CENTRAL)","latitude":"53.3552","longitude":"-6.27842"},{"id":45799134,"harvest_time":"2022-01-25T14:15:03","station_id":105,"available_bike_stands":22,"bike_stands":36,"available_bikes":14,"banking":false,"bonus":false,"last_update":"2022-01-25T14:14:01","status":"OPEN","address":"Grangegorman Lower (North)","name":"GRANGEGORMAN LOWER (NORTH)","latitude":"53.356","longitude":"-6.27838"},{"id":45799078,"harvest_time":"2022-01-25T14:15:03","station_id":106,"available_bike_stands":27,"bike_stands":40,"available_bikes":13,"banking":false,"bonus":false,"last_update":"2022-01-25T14:09:08","status":"OPEN","address":"Rathdown Road","name":"RATHDOWN ROAD","latitude":"53.3589","longitude":"-6.28034"},{"id":45799156,"harvest_time":"2022-01-25T14:15:03","station_id":107,"available_bike_stands":20,"bike_stands":40,"available_bikes":20,"banking":false,"bonus":false,"last_update":"2022-01-25T14:14:07","status":"OPEN","address":"Charleville Road","name":"CHARLEVILLE ROAD","latitude":"53.3592","longitude":"-6.28187"},{"id":45799066,"harvest_time":"2022-01-25T14:15:03","station_id":108,"available_bike_stands":11,"bike_stands":35,"available_bikes":24,"banking":false,"bonus":false,"last_update":"2022-01-25T14:04:17","status":"OPEN","address":"Avondale Road","name":"AVONDALE ROAD","latitude":"53.3594","longitude":"-6.27614"},{"id":45799154,"harvest_time":"2022-01-25T14:15:03","station_id":109,"available_bike_stands":17,"bike_stands":29,"available_bikes":12,"banking":false,"bonus":false,"last_update":"2022-01-25T14:05:40","status":"OPEN","address":"Buckingham Street Lower","name":"BUCKINGHAM STREET LOWER","latitude":"53.3533","longitude":"-6.24932"},{"id":45799139,"harvest_time":"2022-01-25T14:15:03","station_id":110,"available_bike_stands":27,"bike_stands":40,"available_bikes":13,"banking":false,"bonus":false,"last_update":"2022-01-25T14:13:09","status":"OPEN","address":"Phibsborough Road","name":"PHIBSBOROUGH ROAD","latitude":"53.3563","longitude":"-6.27372"},{"id":45799145,"harvest_time":"2022-01-25T14:15:03","station_id":111,"available_bike_stands":28,"bike_stands":40,"available_bikes":12,"banking":false,"bonus":false,"last_update":"2022-01-25T14:12:34","status":"OPEN","address":"Mountjoy Square East","name":"MOUNTJOY SQUARE EAST","latitude":"53.3567","longitude":"-6.25636"},{"id":45799079,"harvest_time":"2022-01-25T14:15:03","station_id":112,"available_bike_stands":27,"bike_stands":30,"available_bikes":3,"banking":false,"bonus":false,"last_update":"2022-01-25T14:07:33","status":"OPEN","address":"North Circular Road (O'Connell's)","name":"NORTH CIRCULAR ROAD (O'CONNELL'S)","latitude":"53.3578","longitude":"-6.25156"},{"id":45799091,"harvest_time":"2022-01-25T14:15:03","station_id":113,"available_bike_stands":25,"bike_stands":40,"available_bikes":15,"banking":false,"bonus":false,"last_update":"2022-01-25T14:04:18","status":"OPEN","address":"Merrion Square South","name":"MERRION SQUARE SOUTH","latitude":"53.3386","longitude":"-6.24861"},{"id":45799088,"harvest_time":"2022-01-25T14:15:03","station_id":114,"available_bike_stands":21,"bike_stands":40,"available_bikes":19,"banking":false,"bonus":false,"last_update":"2022-01-25T14:05:24","status":"OPEN","address":"Wilton Terrace (Park)","name":"WILTON TERRACE (PARK)","latitude":"53.3337","longitude":"-6.24834"},{"id":45799116,"harvest_time":"2022-01-25T14:15:03","station_id":115,"available_bike_stands":15,"bike_stands":30,"available_bikes":15,"banking":false,"bonus":false,"last_update":"2022-01-25T14:08:19","status":"OPEN","address":"Killarney Street","name":"KILLARNEY STREET","latitude":"53.3548","longitude":"-6.24758"},{"id":45799096,"harvest_time":"2022-01-25T14:15:03","station_id":116,"available_bike_stands":13,"bike_stands":30,"available_bikes":17,"banking":false,"bonus":false,"last_update":"2022-01-25T14:10:58","status":"OPEN","address":"Broadstone","name":"BROADSTONE","latitude":"53.3547","longitude":"-6.27231"},{"id":45799118,"harvest_time":"2022-01-25T14:15:03","station_id":117,"available_bike_stands":36,"bike_stands":40,"available_bikes":4,"banking":false,"bonus":false,"last_update":"2022-01-25T14:07:19","status":"OPEN","address":"Hanover Quay East","name":"HANOVER QUAY EAST","latitude":"53.3437","longitude":"-6.23175"}]